$GPGGA,180358.200,3859.0335,N,07731.9688,W,1,6,1.37,113.3,M,-33.4,M,,*6E

$GPRMC,180358.200,A,3859.0335,N,07731.9688,W,0.09,229.39,130512,,,A*78

$GPGGA,180358.300,3859.0335,N,07731.9689,W,1,7,1.19,113.0,M,-33.4,M,,*60

$GPRMC,180358.300,A,3859.0335,N,07731.9689,W,0.07,229.39,130512,,,A*76

$GPGGA,180358.400,3859.0336,N,07731.9690,W,1,7,1.19,112.7,M,-33.4,M,,*6A

$GPRMC,180358.400,A,3859.0336,N,07731.9690,W,0.06,229.39,130512,,,A*7B

$GPGGA,180358.500,3859.0336,N,07731.9692,W,1,7,1.19,112.4,M,-33.4,M,,*6A

$GPRMC,180358.500,A,3859.0336,N,07731.9692,W,0.07,229.39,130512,,,A*79


$GPGGA,180358.600,3859.0337,N,07731.9694,W,1,7,1.19,112.0,M,-33.4,M,,*6A

$GPRMC,180358.600,A,3859.0337,N,07731.9694,W,0.09,229.39,130512,,,A*73

$GPGGA,180358.700,3859.0338,N,07731.9697,W,1,7,1.19,111.5,M,-33.4,M,,*61

$GPRMC,180358.700,A,3859.0338,N,07731.9697,W,0.10,229.39,130512,,,A*76


$GPGGA,180358.800,3859.0339,N,07731.9699,W,1,7,1.19,111.0,M,-33.4,M,,*64

$GPRMC,180358.800,A,3859.0339,N,07731.9699,W,0.12,229.39,130512,,,A*74

$GPGGA,180358.900,3859.0339,N,07731.9701,W,1,7,1.19,110.6,M,-33.4,M,,*62

$GPRMC,180358.900,A,3859.0339,N,07731.9701,W,0.13,229.39,130512,,,A*74

$GPGGA,180359.000,3859.0341,N,07731.9704,W,1,7,1.19,109.9,M,-33.4,M,,*67

$GPRMC,180359.000,A,3859.0341,N,07731.9704,W,0.13,229.39,130512,,,A*76


$GPGGA,180359.100,3859.0342,N,07731.9707,W,1,7,1.19,109.2,M,-33.4,M,,*6D

$GPRMC,180359.100,A,3859.0342,N,07731.9707,W,0.14,229.39,130512,,,A*70

$GPGGA,180359.200,3859.0343,N,07731.9710,W,1,7,1.19,108.6,M,-33.4,M,,*6C

$GPRMC,180359.200,A,3859.0343,N,07731.9710,W,0.16,229.39,130512,,,A*76


$GPGGA,180359.300,3859.0343,N,07731.9712,W,1,7,1.19,108.1,M,-33.4,M,,*68

$GPRMC,180359.300,A,3859.0343,N,07731.9712,W,0.18,229.39,130512,,,A*7B

$GPGGA,180359.400,3859.0344,N,07731.9715,W,1,7,1.19,107.4,M,-33.4,M,,*65

$GPRMC,180359.400,A,3859.0344,N,07731.9715,W,0.20,229.39,130512,,,A*77


$GPGGA,180359.500,3859.0345,N,07731.9717,W,1,7,1.19,107.0,M,-33.4,M,,*63

$GPRMC,180359.500,A,3859.0345,N,07731.9717,W,0.22,229.39,130512,,,A*77

$GPGGA,180359.600,3859.0345,N,07731.9719,W,1,7,1.19,106.5,M,-33.4,M,,*6A

$GPRMC,180359.600,A,3859.0345,N,07731.9719,W,0.24,229.39,130512,,,A*7C

$GPGGA,180359.700,3859.0344,N,07731.9719,W,1,7,1.19,106.6,M,-33.4,M,,*69

$GPRMC,180359.700,A,3859.0344,N,07731.9719,W,0.25,229.39,130512,,,A*7D


$GPGGA,180359.800,3859.0344,N,07731.9720,W,1,7,1.19,106.5,M,-33.4,M,,*6F

$GPRMC,180359.800,A,3859.0344,N,07731.9720,W,0.28,229.39,130512,,,A*75

$GPGGA,180359.900,3859.0344,N,07731.9722,W,1,7,1.19,106.5,M,-33.4,M,,*6C

$GPRMC,180359.900,A,3859.0344,N,07731.9722,W,0.31,229.39,130512,,,A*7E

$GPGGA,180400.000,3859.0344,N,07731.9724,W,1,7,1.19,106.3,M,-33.4,M,,*6E

$GPRMC,180400.000,A,3859.0344,N,07731.9724,W,0.33,229.39,130512,,,A*78


$GPGGA,180400.100,3859.0344,N,07731.9725,W,1,7,1.19,106.5,M,-33.4,M,,*68

$GPRMC,180400.100,A,3859.0344,N,07731.9725,W,0.36,229.39,130512,,,A*7D

$GPGGA,180400.200,3859.0343,N,07731.9725,W,1,7,1.19,106.6,M,-33.4,M,,*6F

$GPRMC,180400.200,A,3859.0343,N,07731.9725,W,0.39,229.39,130512,,,A*76


$GPGGA,180400.300,3859.0343,N,07731.9725,W,1,7,1.19,106.7,M,-33.4,M,,*6F

$GPRMC,180400.300,A,3859.0343,N,07731.9725,W,0.42,229.39,130512,,,A*7B

$GPGGA,180400.400,3859.0342,N,07731.9724,W,1,7,1.19,106.8,M,-33.4,M,,*67

$GPRMC,180400.400,A,3859.0342,N,07731.9724,W,0.45,229.39,130512,,,A*7B

$GPGGA,180400.500,3859.0341,N,07731.9724,W,1,7,1.19,107.0,M,-33.4,M,,*6C

$GPRMC,180400.500,A,3859.0341,N,07731.9724,W,0.48,229.39,130512,,,A*74


$GPGGA,180400.600,3859.0341,N,07731.9723,W,1,7,1.19,107.3,M,-33.4,M,,*6B

$GPRMC,180400.600,A,3859.0341,N,07731.9723,W,0.50,229.39,130512,,,A*79

$GPGGA,180400.700,3859.0341,N,07731.9723,W,1,7,1.19,107.3,M,-33.4,M,,*6A

$GPRMC,180400.700,A,3859.0341,N,07731.9723,W,0.51,229.39,130512,,,A*79


$GPGGA,180400.800,3859.0341,N,07731.9723,W,1,7,1.19,107.2,M,-33.4,M,,*64

$GPRMC,180400.800,A,3859.0341,N,07731.9723,W,0.53,229.39,130512,,,A*74

$GPGGA,180400.900,3859.0341,N,07731.9724,W,1,7,1.19,107.2,M,-33.4,M,,*62

$GPRMC,180400.900,A,3859.0341,N,07731.9724,W,0.54,229.39,130512,,,A*75

$GPGGA,180401.000,3859.0341,N,07731.9723,W,1,7,1.19,107.1,M,-33.4,M,,*6E

$GPRMC,180401.000,A,3859.0341,N,07731.9723,W,0.55,229.39,130512,,,A*7B


$GPGGA,180401.100,3859.0341,N,07731.9724,W,1,7,1.19,107.0,M,-33.4,M,,*69

$GPRMC,180401.100,A,3859.0341,N,07731.9724,W,0.55,229.39,130512,,,A*7D

$GPGGA,180401.200,3859.0340,N,07731.9723,W,1,7,1.19,107.1,M,-33.4,M,,*6D

$GPRMC,180401.200,A,3859.0340,N,07731.9723,W,0.56,229.39,130512,,,A*7B


$GPGGA,180401.300,3859.0340,N,07731.9723,W,1,7,1.19,107.2,M,-33.4,M,,*6F

$GPRMC,180401.300,A,3859.0340,N,07731.9723,W,0.57,229.39,130512,,,A*7B

$GPGGA,180401.400,3859.0340,N,07731.9722,W,1,7,1.19,107.2,M,-33.4,M,,*69

$GPRMC,180401.400,A,3859.0340,N,07731.9722,W,0.57,229.39,130512,,,A*7D

$GPGGA,180401.500,3859.0338,N,07731.9721,W,1,7,1.19,107.6,M,-33.4,M,,*60

$GPRMC,180401.500,A,3859.0338,N,07731.9721,W,0.58,229.39,130512,,,A*7F


$GPGGA,180401.600,3859.0338,N,07731.9720,W,1,7,1.19,107.6,M,-33.4,M,,*62

$GPRMC,180401.600,A,3859.0338,N,07731.9720,W,0.57,229.39,130512,,,A*72

$GPGGA,180401.700,3859.0338,N,07731.9719,W,1,7,1.19,107.7,M,-33.4,M,,*68

$GPRMC,180401.700,A,3859.0338,N,07731.9719,W,0.59,106.48,130512,,,A*7F


$GPGGA,180401.800,3859.0336,N,07731.9716,W,1,7,1.19,108.3,M,-33.4,M,,*6D

$GPRMC,180401.800,A,3859.0336,N,07731.9716,W,0.61,105.50,130512,,,A*70

$GPGGA,180401.900,3859.0334,N,07731.9712,W,1,7,1.19,108.8,M,-33.4,M,,*61

$GPRMC,180401.900,A,3859.0334,N,07731.9712,W,0.64,104.50,130512,,,A*73

$GPGGA,180402.000,3859.0333,N,07731.9709,W,1,7,1.19,109.4,M,-33.4,M,,*6B

$GPRMC,180402.000,A,3859.0333,N,07731.9709,W,0.66,103.65,130512,,,A*77


$GPGGA,180402.100,3859.0332,N,07731.9707,W,1,7,1.19,109.7,M,-33.4,M,,*66

$GPRMC,180402.100,A,3859.0332,N,07731.9707,W,0.67,101.99,130512,,,A*79

$GPGGA,180402.200,3859.0331,N,07731.9707,W,1,7,1.19,109.9,M,-33.4,M,,*68

$GPRMC,180402.200,A,3859.0331,N,07731.9707,W,0.68,100.37,130512,,,A*73


$GPGGA,180402.300,3859.0331,N,07731.9707,W,1,7,1.19,110.0,M,-33.4,M,,*68

$GPRMC,180402.300,A,3859.0331,N,07731.9707,W,0.67,99.92,130512,,,A*43

$GPGGA,180402.400,3859.0331,N,07731.9707,W,1,7,1.19,110.0,M,-33.4,M,,*6F

$GPRMC,180402.400,A,3859.0331,N,07731.9707,W,0.67,99.24,130512,,,A*49

$GPGGA,180402.500,3859.0331,N,07731.9707,W,1,7,1.19,110.1,M,-33.4,M,,*6F

$GPRMC,180402.500,A,3859.0331,N,07731.9707,W,0.68,99.32,130512,,,A*40


$GPGGA,180402.600,3859.0331,N,07731.9708,W,1,6,1.24,110.1,M,-33.4,M,,*6C

$GPRMC,180402.600,A,3859.0331,N,07731.9708,W,0.67,99.56,130512,,,A*41

$GPGGA,180402.700,3859.0331,N,07731.9709,W,1,6,1.24,110.0,M,-33.4,M,,*6D

$GPRMC,180402.700,A,3859.0331,N,07731.9709,W,0.66,99.68,130512,,,A*4D


$GPGGA,180402.800,3859.0331,N,07731.9710,W,1,6,1.24,110.0,M,-33.4,M,,*6A

$GPRMC,180402.800,A,3859.0331,N,07731.9710,W,0.63,99.54,130512,,,A*40

$GPGGA,180402.900,3859.0331,N,07731.9711,W,1,6,1.24,110.0,M,-33.4,M,,*6A

$GPRMC,180402.900,A,3859.0331,N,07731.9711,W,0.61,100.10,130512,,,A*73

$GPGGA,180403.000,3859.0331,N,07731.9712,W,1,6,1.24,110.2,M,-33.4,M,,*63

$GPRMC,180403.000,A,3859.0331,N,07731.9712,W,0.59,101.27,130512,,,A*76


$GPGGA,180403.100,3859.0331,N,07731.9711,W,1,6,1.24,110.3,M,-33.4,M,,*60

$GPRMC,180403.100,A,3859.0331,N,07731.9711,W,0.58,101.27,130512,,,A*75

$GPGGA,180403.200,3859.0331,N,07731.9711,W,1,6,1.24,110.5,M,-33.4,M,,*65

$GPRMC,180403.200,A,3859.0331,N,07731.9711,W,0.56,101.27,130512,,,A*78


$GPGGA,180403.300,3859.0331,N,07731.9711,W,1,6,1.24,110.6,M,-33.4,M,,*67

$GPRMC,180403.300,A,3859.0331,N,07731.9711,W,0.55,101.27,130512,,,A*7A

$GPGGA,180403.400,3859.0331,N,07731.9710,W,1,6,1.24,110.8,M,-33.4,M,,*6F

$GPRMC,180403.400,A,3859.0331,N,07731.9710,W,0.54,101.27,130512,,,A*7D

$GPGGA,180403.500,3859.0331,N,07731.9709,W,1,6,1.24,111.3,M,-33.4,M,,*6C

$GPRMC,180403.500,A,3859.0331,N,07731.9709,W,0.53,101.27,130512,,,A*73


$GPGGA,180403.600,3859.0332,N,07731.9708,W,1,6,1.24,111.9,M,-33.4,M,,*67

$GPRMC,180403.600,A,3859.0332,N,07731.9708,W,0.52,101.27,130512,,,A*73

$GPGGA,180403.700,3859.0333,N,07731.9707,W,1,6,1.24,112.3,M,-33.4,M,,*61

$GPRMC,180403.700,A,3859.0333,N,07731.9707,W,0.50,101.27,130512,,,A*7E


$GPGGA,180403.800,3859.0334,N,07731.9707,W,1,6,1.25,112.7,M,-33.4,M,,*6C

$GPRMC,180403.800,A,3859.0334,N,07731.9707,W,0.47,101.27,130512,,,A*70

$GPGGA,180403.900,3859.0335,N,07731.9708,W,1,6,1.25,113.1,M,-33.4,M,,*64

$GPRMC,180403.900,A,3859.0335,N,07731.9708,W,0.42,101.27,130512,,,A*7A

$GPGGA,180404.000,3859.0335,N,07731.9707,W,1,6,1.24,113.6,M,-33.4,M,,*63

$GPRMC,180404.000,A,3859.0335,N,07731.9707,W,0.37,101.27,130512,,,A*79


$GPGGA,180404.100,3859.0336,N,07731.9706,W,1,6,1.24,114.2,M,-33.4,M,,*63

$GPRMC,180404.100,A,3859.0336,N,07731.9706,W,0.32,101.27,130512,,,A*7F

$GPGGA,180404.200,3859.0337,N,07731.9705,W,1,6,1.24,114.9,M,-33.4,M,,*69

$GPRMC,180404.200,A,3859.0337,N,07731.9705,W,0.27,101.27,130512,,,A*7A


$GPGGA,180404.300,3859.0338,N,07731.9703,W,1,6,1.24,115.5,M,-33.4,M,,*6C

$GPRMC,180404.300,A,3859.0338,N,07731.9703,W,0.23,101.27,130512,,,A*76

$GPGGA,180404.400,3859.0340,N,07731.9702,W,1,6,1.25,116.2,M,-33.4,M,,*60

$GPRMC,180404.400,A,3859.0340,N,07731.9702,W,0.20,101.27,130512,,,A*7C

$GPGGA,180404.500,3859.0341,N,07731.9700,W,1,6,1.24,116.8,M,-33.4,M,,*69

$GPRMC,180404.500,A,3859.0341,N,07731.9700,W,0.17,101.27,130512,,,A*7A


$GPGGA,180404.600,3859.0342,N,07731.9698,W,1,6,1.24,117.4,M,-33.4,M,,*64

$GPRMC,180404.600,A,3859.0342,N,07731.9698,W,0.14,101.27,130512,,,A*79

$GPGGA,180404.700,3859.0343,N,07731.9698,W,1,6,1.25,117.8,M,-33.4,M,,*69

$GPRMC,180404.700,A,3859.0343,N,07731.9698,W,0.10,101.27,130512,,,A*7D


$GPGGA,180404.800,3859.0344,N,07731.9696,W,1,6,1.24,118.2,M,-33.4,M,,*6B

$GPRMC,180404.800,A,3859.0344,N,07731.9696,W,0.09,101.27,130512,,,A*73

$GPGGA,180404.900,3859.0345,N,07731.9695,W,1,6,1.24,118.5,M,-33.4,M,,*6F

$GPRMC,180404.900,A,3859.0345,N,07731.9695,W,0.08,101.27,130512,,,A*71

$GPGGA,180405.000,3859.0346,N,07731.9694,W,1,6,1.24,118.8,M,-33.4,M,,*68

$GPRMC,180405.000,A,3859.0346,N,07731.9694,W,0.08,101.27,130512,,,A*7B


$GPGGA,180405.100,3859.0346,N,07731.9693,W,1,6,1.38,119.2,M,-33.4,M,,*68

$GPRMC,180405.100,A,3859.0346,N,07731.9693,W,0.09,101.27,130512,,,A*7C

$GPGGA,180405.200,3859.0347,N,07731.9692,W,1,6,1.38,119.3,M,-33.4,M,,*6A

$GPRMC,180405.200,A,3859.0347,N,07731.9692,W,0.10,101.27,130512,,,A*77


$GPGGA,180405.300,3859.0347,N,07731.9692,W,1,6,1.38,119.3,M,-33.4,M,,*6B

$GPRMC,180405.300,A,3859.0347,N,07731.9692,W,0.08,101.27,130512,,,A*7F

$GPGGA,180405.400,3859.0347,N,07731.9692,W,1,6,1.38,119.3,M,-33.4,M,,*6C

$GPRMC,180405.400,A,3859.0347,N,07731.9692,W,0.07,101.27,130512,,,A*77


$GPGGA,180405.500,3859.0347,N,07731.9691,W,1,6,1.25,119.4,M,-33.4,M,,*65

$GPRMC,180405.500,A,3859.0347,N,07731.9691,W,0.07,101.27,130512,,,A*75

$GPGGA,180405.600,3859.0346,N,07731.9690,W,1,6,1.24,119.5,M,-33.4,M,,*66

$GPRMC,180405.600,A,3859.0346,N,07731.9690,W,0.08,101.27,130512,,,A*79

$GPGGA,180405.700,3859.0346,N,07731.9689,W,1,6,1.25,119.6,M,-33.4,M,,*6D

$GPRMC,180405.700,A,3859.0346,N,07731.9689,W,0.07,101.27,130512,,,A*7F


$GPGGA,180405.800,3859.0346,N,07731.9689,W,1,6,1.25,119.7,M,-33.4,M,,*63

$GPRMC,180405.800,A,3859.0346,N,07731.9689,W,0.08,101.27,130512,,,A*7F

$GPGGA,180405.900,3859.0346,N,07731.9688,W,1,6,1.24,119.8,M,-33.4,M,,*6D

$GPRMC,180405.900,A,3859.0346,N,07731.9688,W,0.09,101.27,130512,,,A*7E

$GPGGA,180406.000,3859.0346,N,07731.9688,W,1,6,1.24,119.9,M,-33.4,M,,*66

$GPRMC,180406.000,A,3859.0346,N,07731.9688,W,0.10,101.27,130512,,,A*7C


$GPGGA,180406.100,3859.0346,N,07731.9688,W,1,6,1.24,120.0,M,-33.4,M,,*64

$GPRMC,180406.100,A,3859.0346,N,07731.9688,W,0.09,101.27,130512,,,A*75

$GPGGA,180406.200,3859.0346,N,07731.9687,W,1,6,1.24,120.1,M,-33.4,M,,*69

$GPRMC,180406.200,A,3859.0346,N,07731.9687,W,0.07,101.27,130512,,,A*77


$GPGGA,180406.300,3859.0346,N,07731.9686,W,1,6,1.24,120.2,M,-33.4,M,,*6A

$GPRMC,180406.300,A,3859.0346,N,07731.9686,W,0.07,101.27,130512,,,A*77

$GPGGA,180406.400,3859.0345,N,07731.9685,W,1,6,1.24,120.4,M,-33.4,M,,*6B

$GPRMC,180406.400,A,3859.0345,N,07731.9685,W,0.06,101.27,130512,,,A*71

$GPGGA,180406.500,3859.0345,N,07731.9684,W,1,6,1.24,120.5,M,-33.4,M,,*6A

$GPRMC,180406.500,A,3859.0345,N,07731.9684,W,0.06,101.27,130512,,,A*71


$GPGGA,180406.600,3859.0344,N,07731.9683,W,1,6,1.24,120.6,M,-33.4,M,,*6C

$GPRMC,180406.600,A,3859.0344,N,07731.9683,W,0.05,101.27,130512,,,A*77

$GPGGA,180406.700,3859.0344,N,07731.9682,W,1,6,1.24,120.7,M,-33.4,M,,*6D

$GPRMC,180406.700,A,3859.0344,N,07731.9682,W,0.05,101.27,130512,,,A*77


$GPGGA,180406.800,3859.0344,N,07731.9682,W,1,6,1.24,120.7,M,-33.4,M,,*62

$GPRMC,180406.800,A,3859.0344,N,07731.9682,W,0.04,101.27,130512,,,A*79

$GPGGA,180406.900,3859.0343,N,07731.9681,W,1,6,1.24,120.7,M,-33.4,M,,*67

$GPRMC,180406.900,A,3859.0343,N,07731.9681,W,0.04,101.27,130512,,,A*7C

$GPGGA,180407.000,3859.0343,N,07731.9681,W,1,6,1.24,120.6,M,-33.4,M,,*6E

$GPRMC,180407.000,A,3859.0343,N,07731.9681,W,0.04,101.27,130512,,,A*74


$GPGGA,180407.100,3859.0343,N,07731.9682,W,1,6,1.24,120.2,M,-33.4,M,,*68

$GPRMC,180407.100,A,3859.0343,N,07731.9682,W,0.05,101.27,130512,,,A*77

$GPGGA,180407.200,3859.0343,N,07731.9683,W,1,6,1.24,119.9,M,-33.4,M,,*6B

$GPRMC,180407.200,A,3859.0343,N,07731.9683,W,0.05,101.27,130512,,,A*75


$GPGGA,180407.300,3859.0343,N,07731.9684,W,1,6,1.24,119.6,M,-33.4,M,,*62

$GPRMC,180407.300,A,3859.0343,N,07731.9684,W,0.05,101.27,130512,,,A*73

$GPGGA,180407.400,3859.0343,N,07731.9685,W,1,6,1.24,119.3,M,-33.4,M,,*61

$GPRMC,180407.400,A,3859.0343,N,07731.9685,W,0.03,101.27,130512,,,A*73

$GPGGA,180407.500,3859.0343,N,07731.9685,W,1,6,1.24,119.2,M,-33.4,M,,*61

$GPRMC,180407.500,A,3859.0343,N,07731.9685,W,0.04,101.27,130512,,,A*75


$GPGGA,180407.600,3859.0343,N,07731.9685,W,1,6,1.24,118.8,M,-33.4,M,,*69

$GPRMC,180407.600,A,3859.0343,N,07731.9685,W,0.04,101.27,130512,,,A*76

$GPGGA,180407.700,3859.0342,N,07731.9686,W,1,6,1.24,118.6,M,-33.4,M,,*64

$GPRMC,180407.700,A,3859.0342,N,07731.9686,W,0.05,101.27,130512,,,A*74


$GPGGA,180407.800,3859.0342,N,07731.9686,W,1,6,1.25,118.4,M,-33.4,M,,*68

$GPRMC,180407.800,A,3859.0342,N,07731.9686,W,0.04,101.27,130512,,,A*7A

$GPGGA,180407.900,3859.0342,N,07731.9687,W,1,6,1.24,118.2,M,-33.4,M,,*6F

$GPRMC,180407.900,A,3859.0342,N,07731.9687,W,0.04,101.27,130512,,,A*7A

$GPGGA,180408.000,3859.0343,N,07731.9687,W,1,6,1.24,118.2,M,-33.4,M,,*68

$GPRMC,180408.000,A,3859.0343,N,07731.9687,W,0.03,101.27,130512,,,A*7A


$GPGGA,180408.100,3859.0343,N,07731.9687,W,1,6,1.25,118.2,M,-33.4,M,,*68

$GPRMC,180408.100,A,3859.0343,N,07731.9687,W,0.04,101.27,130512,,,A*7C

$GPGGA,180408.200,3859.0343,N,07731.9688,W,1,6,1.24,118.1,M,-33.4,M,,*66

$GPRMC,180408.200,A,3859.0343,N,07731.9688,W,0.04,101.27,130512,,,A*70


$GPGGA,180408.300,3859.0343,N,07731.9689,W,1,6,1.24,118.0,M,-33.4,M,,*67

$GPRMC,180408.300,A,3859.0343,N,07731.9689,W,0.05,101.27,130512,,,A*71

$GPGGA,180408.400,3859.0343,N,07731.9689,W,1,6,1.24,117.9,M,-33.4,M,,*66

$GPRMC,180408.400,A,3859.0343,N,07731.9689,W,0.08,101.27,130512,,,A*7B

$GPGGA,180408.500,3859.0343,N,07731.9690,W,1,6,1.25,117.8,M,-33.4,M,,*6F

$GPRMC,180408.500,A,3859.0343,N,07731.9690,W,0.09,101.27,130512,,,A*73


$GPGGA,180408.600,3859.0343,N,07731.9691,W,1,6,1.25,117.6,M,-33.4,M,,*63

$GPRMC,180408.600,A,3859.0343,N,07731.9691,W,0.10,101.27,130512,,,A*79

$GPGGA,180408.700,3859.0343,N,07731.9692,W,1,6,1.25,117.3,M,-33.4,M,,*64

$GPRMC,180408.700,A,3859.0343,N,07731.9692,W,0.13,101.27,130512,,,A*78


$GPGGA,180408.800,3859.0342,N,07731.9694,W,1,6,1.25,116.9,M,-33.4,M,,*67

$GPRMC,180408.800,A,3859.0342,N,07731.9694,W,0.14,101.27,130512,,,A*77

$GPGGA,180408.900,3859.0342,N,07731.9695,W,1,6,1.24,116.8,M,-33.4,M,,*67

$GPRMC,180408.900,A,3859.0342,N,07731.9695,W,0.15,101.27,130512,,,A*76

$GPGGA,180409.000,3859.0342,N,07731.9695,W,1,6,1.24,116.7,M,-33.4,M,,*60

$GPRMC,180409.000,A,3859.0342,N,07731.9695,W,0.16,101.27,130512,,,A*7D


$GPGGA,180409.100,3859.0342,N,07731.9696,W,1,6,1.25,116.6,M,-33.4,M,,*62

$GPRMC,180409.100,A,3859.0342,N,07731.9696,W,0.16,101.27,130512,,,A*7F

$GPGGA,180409.200,3859.0342,N,07731.9697,W,1,6,1.25,116.5,M,-33.4,M,,*63

$GPRMC,180409.200,A,3859.0342,N,07731.9697,W,0.16,101.27,130512,,,A*7D


$GPGGA,180409.300,3859.0341,N,07731.9698,W,1,6,1.25,116.3,M,-33.4,M,,*68

$GPRMC,180409.300,A,3859.0341,N,07731.9698,W,0.18,101.27,130512,,,A*7E

$GPGGA,180409.400,3859.0341,N,07731.9698,W,1,6,1.25,116.2,M,-33.4,M,,*6E

$GPRMC,180409.400,A,3859.0341,N,07731.9698,W,0.19,101.27,130512,,,A*78

$GPGGA,180409.500,3859.0341,N,07731.9699,W,1,6,1.24,116.1,M,-33.4,M,,*6C

$GPRMC,180409.500,A,3859.0341,N,07731.9699,W,0.19,101.27,130512,,,A*78


$GPGGA,180409.600,3859.0341,N,07731.9700,W,1,6,1.25,116.1,M,-33.4,M,,*6F

$GPRMC,180409.600,A,3859.0341,N,07731.9700,W,0.20,101.27,130512,,,A*70

$GPGGA,180409.700,3859.0340,N,07731.9700,W,1,6,1.24,116.2,M,-33.4,M,,*6D

$GPRMC,180409.700,A,3859.0340,N,07731.9700,W,0.21,101.27,130512,,,A*71


$GPGGA,180409.800,3859.0340,N,07731.9700,W,1,6,1.24,116.2,M,-33.4,M,,*62

$GPRMC,180409.800,A,3859.0340,N,07731.9700,W,0.24,101.27,130512,,,A*7B

$GPGGA,180409.900,3859.0339,N,07731.9700,W,1,6,1.24,116.2,M,-33.4,M,,*6D

$GPRMC,180409.900,A,3859.0339,N,07731.9700,W,0.27,101.27,130512,,,A*77

$GPGGA,180410.000,3859.0338,N,07731.9700,W,1,6,1.24,116.2,M,-33.4,M,,*6D

$GPRMC,180410.000,A,3859.0338,N,07731.9700,W,0.29,101.27,130512,,,A*79
